{
  "storeData":[{
    "name":"二十世纪不动产(龙凯加盟店)",
    "distance":1.6,
    "lng":104.106897,
    "lat":30.650001,
    "address":"四川省成都市成华区万年场XX路xx街道xx号1892-302室市成华区万年场XX路xx街道xx号1892-302室"
  },{
    "name":"二十世纪不动产(龙凯加盟店)",
    "distance":1.6,
    "lng":104.111101,
    "lat":30.651058,
    "address":"四川省成都市成华区万年场XX路xx街道xx号1892-302室市成华区万年场XX路xx街道xx号1892-302室"
  },{
    "name":"二十世纪不动产(龙凯加盟店)",
    "distance":1.6,
    "lng":104.114155,
    "lat":30.649162,
    "address":"四川省成都市成华区万年场XX路xx街道xx号1892-302室市成华区万年场XX路xx街道xx号1892-302室"
  },{
    "name":"二十世纪不动产(龙凯加盟店)",
    "distance":1.6,
    "lng":104.113544,
    "lat":30.647391,
    "address":"四川省成都市成华区万年场XX路xx街道xx号1892-302室市成华区万年场XX路xx街道xx号1892-302室"
  },{
    "name":"二十世纪不动产(龙凯加盟店)",
    "distance":1.6,
    "lng":104.112646,
    "lat":30.645714,
    "address":"四川省成都市成华区万年场XX路xx街道xx号1892-302室市成华区万年场XX路xx街道xx号1892-302室"
  },{
    "name":"二十世纪不动产(龙凯加盟店)",
    "distance":1.6,
    "lng":104.119347,
    "lat":30.642327,
    "address":"四川省成都市成华区万年场XX路xx街道xx号1892-302室市成华区万年场XX路xx街道xx号1892-302室"
  },{
    "name":"二十世纪不动产(龙凯加盟店)",
    "distance":1.6,
    "lng":104.109268,
    "lat":30.646304,
    "address":"四川省成都市成华区万年场XX路xx街道xx号1892-302室市成华区万年场XX路xx街道xx号1892-302室"
  },{
    "name":"二十世纪不动产(龙凯加盟店)",
    "distance":1.6,
    "lng":104.109843,
    "lat":30.643259,
    "address":"四川省成都市成华区万年场XX路xx街道xx号1892-302室市成华区万年场XX路xx街道xx号1892-302室"
  },{
    "name":"二十世纪不动产(龙凯加盟店)",
    "distance":1.6,
    "lng":104.107436,
    "lat":30.652611,
    "address":"四川省成都市成华区万年场XX路xx街道xx号1892-302室市成华区万年场XX路xx街道xx号1892-302室"
  },{
    "name":"二十世纪不动产(龙凯加盟店)",
    "distance":1.6,
    "lng":104.101471,
    "lat":30.648075,
    "address":"四川省成都市成华区万年场XX路xx街道xx号1892-302室市成华区万年场XX路xx街道xx号1892-302室"
  },{
    "name":"二十世纪不动产(龙凯加盟店)",
    "distance":1.6,
    "lng":104.102765,
    "lat":30.642669,
    "address":"四川省成都市成华区万年场XX路xx街道xx号1892-302室市成华区万年场XX路xx街道xx号1892-302室"
  },{
    "name":"二十世纪不动产(龙凯加盟店)",
    "distance":1.6,
    "lng":104.102046,
    "lat":30.65404,
    "address":"四川省成都市成华区万年场XX路xx街道xx号1892-302室市成华区万年场XX路xx街道xx号1892-302室"
  },{
    "name":"二十世纪不动产(龙凯加盟店)",
    "distance":1.6,
    "lng":104.099602,
    "lat":30.648696,
    "address":"四川省成都市成华区万年场XX路xx街道xx号1892-302室市成华区万年场XX路xx街道xx号1892-302室"
  },{
    "name":"二十世纪不动产(龙凯加盟店)",
    "distance":1.6,
    "lng":104.107687,
    "lat":30.656277,
    "address":"四川省成都市成华区万年场XX路xx街道xx号1892-302室市成华区万年场XX路xx街道xx号1892-302室"
  },{
    "name":"二十世纪不动产(龙凯加盟店)",
    "distance":1.6,
    "lng":104.10413,
    "lat":30.656898,
    "address":"四川省成都市成华区万年场XX路xx街道xx号1892-302室市成华区万年场XX路xx街道xx号1892-302室"
  }]
}